[
    {
        "festival_name": "Hanami",
        "month": "April",
        "description": "Cherry blossom viewing festival, where people gather to enjoy the beauty of cherry blossoms.",
        "location": "General",
        "latitude": "35.6895",
        "longtitude": "139.6917",
        "error": false
    },
    {
        "festival_name": "Takayama Spring Festival",
        "month": "April",
        "description": "A festival featuring beautifully decorated floats and traditional performances.",
        "location": "Takayama",
        "latitude": "36.1392",
        "longtitude": "137.2519",
        "error": false
    },
    {
        "festival_name": "Ueno Sakura Matsuri",
        "month": "April",
        "description": "A cherry blossom festival held in Ueno Park, one of the most popular hanami spots in Tokyo.",
        "location": "Ueno Park, Taito-ku",
        "latitude": 35.7138,
        "longtitude": 139.7775,
        "error": false
    },
    {
        "festival_name": "Gyoki (Buddhism Devotion) at Zojoji Temple",
        "month": "April",
        "description": "A Buddhist devotion event commemorating the death of Honen, featuring a parade of priests.",
        "location": "Zojoji Temple, Minato-ku",
        "latitude": 35.6586,
        "longtitude": 139.7454,
        "error": false
    },
    {
        "festival_name": "Wisteria Festival at Kameido Tenjin Shrine",
        "month": "April",
        "description": "A festival celebrating the blooming of wisteria flowers at Kameido Tenjin Shrine.",
        "location": "Kameido Tenjin Shrine, Koto-ku",
        "latitude": 35.6885,
        "longtitude": 139.826,
        "error": false
    },
    {
        "festival_name": "Hana Matsuri (Buddha's Birthday) at Gokokuji Temple",
        "month": "April",
        "description": "A celebration of Buddha's birthday with various ceremonies and rituals.",
        "location": "Gokokuji Temple, Bunkyo-ku",
        "latitude": 35.724,
        "longtitude": 139.749,
        "error": false
    },
    {
        "festival_name": "Kanamara Matsuri",
        "month": "April",
        "description": "A fertility festival held at Kanayama Shrine, featuring a parade and various rituals.",
        "location": "Kanayama Shrine, Kawasaki",
        "latitude": 35.53,
        "longtitude": 139.703,
        "error": false
    },
    {
        "festival_name": "Peony Festival at Ueno Toshogu Shrine",
        "month": "April",
        "description": "A festival showcasing various peony flowers at Ueno Toshogu Shrine.",
        "location": "Ueno Toshogu Shrine, Taito-ku",
        "latitude": 35.7138,
        "longtitude": 139.7775,
        "error": false
    },
    {
        "festival_name": "Oiran Dochu",
        "month": "April",
        "description": "A reenacted parade of oiran courtesans from the Edo Era.",
        "location": "Oku-Asakusa, Taito-ku",
        "latitude": 35.71,
        "longtitude": 139.796,
        "error": false
    },
    {
        "festival_name": "Shirasagi no Mai",
        "month": "April",
        "description": "A traditional dance performed at Sensoji Temple in Asakusa.",
        "location": "Sensoji Temple, Asakusa",
        "latitude": 35.7115,
        "longtitude": 139.7967,
        "error": false
    },
    {
        "festival_name": "Yasukuni Shrine Hono Sumo",
        "month": "April",
        "description": "An exhibition of sumo matches held at Yasukuni Shrine.",
        "location": "Yasukuni Shrine, Chiyoda-ku",
        "latitude": 35.694,
        "longtitude": 139.7434,
        "error": false
    },
    {
        "festival_name": "Annual Spring Festival of Yasukuni Shrine",
        "month": "April",
        "description": "A festival honoring those who fought and died for Japan.",
        "location": "Yasukuni Shrine, Chiyoda-ku",
        "latitude": 35.694,
        "longtitude": 139.7434,
        "error": false
    },
    {
        "festival_name": "Noge Street Performances",
        "month": "April",
        "description": "A street performance festival featuring various acts and performances.",
        "location": "Noge, Yokohama",
        "latitude": 35.4475,
        "longtitude": 139.634,
        "error": false
    },
    {
        "festival_name": "Konkon Kutsu Ichi (Shoe Festival)",
        "month": "April",
        "description": "A festival held at Tamahime Shrine to celebrate shoes and footwear.",
        "location": "Tamahime Shrine, Taito-ku",
        "latitude": 35.724,
        "longtitude": 139.796,
        "error": false
    },
    {
        "festival_name": "Confucian Festival at Yushima Seido",
        "month": "April",
        "description": "A festival dedicated to Confucius with various offerings and ceremonies.",
        "location": "Yushima Seido, Bunkyo-ku",
        "latitude": 35.706,
        "longtitude": 139.764,
        "error": false
    },
    {
        "festival_name": "Kobudo (Old Martial Arts of Japan)",
        "month": "April",
        "description": "A demonstration of traditional martial arts at Katori Shrine.",
        "location": "Katori Shrine, Kameido",
        "latitude": 35.6885,
        "longtitude": 139.826,
        "error": false
    },
    {
        "festival_name": "Firemen's Annual Memorial Service",
        "month": "April",
        "description": "A memorial service for firemen who lost their lives in firefighting.",
        "location": "Yutenji Temple, Meguro",
        "latitude": 35.634,
        "longtitude": 139.688,
        "error": false
    }
]