[
    {
        "festival_name": "Tanabata",
        "month": "August",
        "description": "A festival celebrating the meeting of two stars, Orihime and Hikoboshi, held on the seventh day of the seventh month of the lunar calendar.",
        "location": "General",
        "latitude": "general",
        "longtitude": "general",
        "error": false
    },
    {
        "festival_name": "Obon",
        "month": "August",
        "description": "A Buddhist festival honoring the spirits of ancestors, typically celebrated with dances and lanterns.",
        "location": "General",
        "latitude": "general",
        "longtitude": "general",
        "error": false
    },
    {
        "festival_name": "Bon Odori at Tsukiji Honganji",
        "month": "August",
        "description": "Bon Odori (Bon Dance) was originally danced in honor of the dead during the O-Bon season. The dance varies according to the district, but the general features are that the participants assemble at temples or the village common, form a circle and dance round to the music of flutes and drums.",
        "location": "Tsukiji, Chuo-ku",
        "latitude": "35.6654",
        "longtitude": "139.7706",
        "error": false
    },
    {
        "festival_name": "Hachioji Matsuri",
        "month": "August",
        "description": "Hachioji Matsuri (Festival) is the largest festival of Hachioji City located in the western suburbs of Tokyo. The festival is held from the first Friday of August for three days every year.",
        "location": "Hachioji City",
        "latitude": "35.6555",
        "longtitude": "139.3406",
        "error": false
    },
    {
        "festival_name": "Matsudo Hanabi Taikai",
        "month": "August",
        "description": "A fireworks festival held in Matsudo.",
        "location": "Matsudo",
        "latitude": "35.8104",
        "longtitude": "139.9030",
        "error": false
    },
    {
        "festival_name": "Bon Odori at Ikegami Honmonji",
        "month": "August",
        "description": "Bon Odori (Bon Dance) is danced in honor of the dead during the O-Bon season.",
        "location": "Ikegami, Ota-ku",
        "latitude": "35.6050",
        "longtitude": "139.6880",
        "error": false
    },
    {
        "festival_name": "Dengaku",
        "month": "August",
        "description": "Dengaku is a type of music and dance associated with agriculture (rice production) to pray for the abundance of the crop.",
        "location": "Oji Shrine, Oji, Kita-ku",
        "latitude": "35.7430",
        "longtitude": "139.7490",
        "error": false
    },
    {
        "festival_name": "Asagaya Tanabata Matsuri",
        "month": "August",
        "description": "A festival featuring colorful decorations of Tanabata paper streamers and giant papier-mache characters.",
        "location": "Asagaya, Suginami-ku",
        "latitude": "35.7000",
        "longtitude": "139.6170",
        "error": false
    },
    {
        "festival_name": "End of the War Memorial Day at Yasukuni Shrine",
        "month": "August",
        "description": "A memorial ceremony for the war dead held at Yasukuni Shrine.",
        "location": "Kudanshita, Chiyoda-ku",
        "latitude": "35.6940",
        "longtitude": "139.7500",
        "error": false
    },
    {
        "festival_name": "Kiraigo",
        "month": "August",
        "description": "A unique Buddhism drama which has a long history of 800 years.",
        "location": "Kosaiji Temple, Musho Village, Yokoshiba, Chiba Prefecture",
        "latitude": "35.8660",
        "longtitude": "140.2330",
        "error": false
    },
    {
        "festival_name": "Kugenuma Kou Daijingu Festival",
        "month": "August",
        "description": "A festival featuring traditional floats and performances.",
        "location": "Kugenuma, Fujisawa City, Kanagawa Prefecture",
        "latitude": "35.3670",
        "longtitude": "139.4870",
        "error": false
    },
    {
        "festival_name": "Takasaki Matsuri",
        "month": "August",
        "description": "A festival featuring dashi floats and various entertainments.",
        "location": "Takasaki City, Gunma Prefecture",
        "latitude": "36.3290",
        "longtitude": "139.0000",
        "error": false
    },
    {
        "festival_name": "Edogawa Hanabi Taikai",
        "month": "August",
        "description": "A fireworks display at the Edogawa River.",
        "location": "Edogawa River Bank, Edogawa-ku",
        "latitude": "35.6690",
        "longtitude": "139.8700",
        "error": false
    },
    {
        "festival_name": "Minami Koshigaya Awa Odori",
        "month": "August",
        "description": "Awa Odori dance festival featuring various teams.",
        "location": "Minami Koshigaya, Saitama Prefecture",
        "latitude": "35.8560",
        "longtitude": "139.7860",
        "error": false
    },
    {
        "festival_name": "Azabu Juban Noryo Matsuri",
        "month": "August",
        "description": "A summer festival featuring outdoor stalls and performances.",
        "location": "Azabu Juban, Minato-ku",
        "latitude": "35.6550",
        "longtitude": "139.7330",
        "error": false
    },
    {
        "festival_name": "Harajuku Super Yosakoi",
        "month": "August",
        "description": "A festival featuring Yosakoi dance performances.",
        "location": "Harajuku, Tokyo",
        "latitude": "35.6700",
        "longtitude": "139.7000",
        "error": false
    },
    {
        "festival_name": "Koenji Awa Odori",
        "month": "August",
        "description": "A large Awa Odori festival with many dancers and groups.",
        "location": "Koenji, Suginami-ku",
        "latitude": "35.6990",
        "longtitude": "139.6170",
        "error": false
    },
    {
        "festival_name": "Tachikawa Suwa Shrine Festival",
        "month": "August",
        "description": "A festival featuring a mikoshi parade and various performances.",
        "location": "Tachikawa City, Tokyo",
        "latitude": "35.7030",
        "longtitude": "139.4100",
        "error": false
    }
]