[
    {
        "name": "Shinagawa Station",
        "latitude": 35.6284,
        "longitude": 139.7389
    },
    {
        "name": "Osaki Station",
        "latitude": 35.6197,
        "longitude": 139.7286
    },
    {
        "name": "Gotanda Station",
        "latitude": 35.6262,
        "longitude": 139.7232
    },
    {
        "name": "Meguro Station",
        "latitude": 35.634,
        "longitude": 139.7157
    },
    {
        "name": "Ebisu Station",
        "latitude": 35.6469,
        "longitude": 139.7103
    },
    {
        "name": "Shibuya Station",
        "latitude": 35.658,
        "longitude": 139.7016
    },
    {
        "name": "Harajuku Station",
        "latitude": 35.671,
        "longitude": 139.7027
    },
    {
        "name": "Yoyogi Station",
        "latitude": 35.6834,
        "longitude": 139.7021
    },
    {
        "name": "Shinjuku Station",
        "latitude": 35.6896,
        "longitude": 139.7
    },
    {
        "name": "Shin-Okubo Station",
        "latitude": 35.7015,
        "longitude": 139.7002
    },
    {
        "name": "Takadanobaba Station",
        "latitude": 35.7121,
        "longitude": 139.7038
    },
    {
        "name": "Mejiro Station",
        "latitude": 35.721,
        "longitude": 139.706
    },
    {
        "name": "Ikebukuro Station",
        "latitude": 35.7295,
        "longitude": 139.711
    },
    {
        "name": "Otsuka Station",
        "latitude": 35.7317,
        "longitude": 139.7285
    },
    {
        "name": "Sugamo Station",
        "latitude": 35.7334,
        "longitude": 139.7394
    },
    {
        "name": "Komagome Station",
        "latitude": 35.7365,
        "longitude": 139.7466
    },
    {
        "name": "Tabata Station",
        "latitude": 35.7382,
        "longitude": 139.761
    },
    {
        "name": "Nishi-Nippori Station",
        "latitude": 35.7321,
        "longitude": 139.7668
    },
    {
        "name": "Nippori Station",
        "latitude": 35.7281,
        "longitude": 139.7708
    },
    {
        "name": "Uguisudani Station",
        "latitude": 35.7205,
        "longitude": 139.7781
    },
    {
        "name": "Ueno Station",
        "latitude": 35.7141,
        "longitude": 139.7774
    },
    {
        "name": "Okachimachi Station",
        "latitude": 35.7075,
        "longitude": 139.7747
    },
    {
        "name": "Akihabara Station",
        "latitude": 35.6982,
        "longitude": 139.7741
    },
    {
        "name": "Kanda Station",
        "latitude": 35.6918,
        "longitude": 139.7709
    },
    {
        "name": "Tokyo Station",
        "latitude": 35.6812,
        "longitude": 139.7671
    },
    {
        "name": "Yurakucho Station",
        "latitude": 35.6749,
        "longitude": 139.7629
    },
    {
        "name": "Shimbashi Station",
        "latitude": 35.6668,
        "longitude": 139.7586
    },
    {
        "name": "Hamamatsucho Station",
        "latitude": 35.6557,
        "longitude": 139.7571
    },
    {
        "name": "Tamachi Station",
        "latitude": 35.6457,
        "longitude": 139.7475
    },
    {
        "name": "Takanawa Gateway Station",
        "latitude": 35.6355,
        "longitude": 139.7408
    }
]